{"features":[{"type":"Feature","properties":{"name":"多摩川"},"geometry":{"coordinates":[139.668835,35.589766],"type":"Point"}},{"type":"Feature","properties":{"name":"沼部"},"geometry":{"coordinates":[139.673249,35.582506],"type":"Point"}},{"type":"Feature","properties":{"name":"鵜の木"},"geometry":{"coordinates":[139.680615,35.575519],"type":"Point"}},{"type":"Feature","properties":{"name":"下丸子"},"geometry":{"coordinates":[139.685618,35.571305],"type":"Point"}},{"type":"Feature","properties":{"name":"武蔵新田"},"geometry":{"coordinates":[139.692579,35.567711],"type":"Point"}},{"type":"Feature","properties":{"name":"矢口渡"},"geometry":{"coordinates":[139.699925,35.562609],"type":"Point"}},{"type":"Feature","properties":{"name":"蒲田"},"geometry":{"coordinates":[139.716051,35.562479],"type":"Point"}}],"type":"FeatureCollection"}
